[
    { "id": 1, "name": "All Saints", "address": "115 Throop Avenue", "est": 1866, "closed": null, "origin": "German", "lat": 40.6996, "lng": -73.9419 },
    { "id": 2, "name": "Annunciation of the BVM", "address": "259 N. 5th Street", "est": 1863, "closed": null, "origin": "German", "lat": 40.7147, "lng": -73.9612 },
    { "id": 3, "name": "Assumption of the BVM", "address": "64 Middagh Street", "est": 1842, "closed": null, "origin": null, "lat": 40.6986, "lng": -73.9897 },
    { "id": 4, "name": "Blessed Sacrament", "address": "198 Euclid Avenue", "est": 1891, "closed": null, "origin": null, "lat": 40.6774, "lng": -73.8722 },
    { "id": 5, "name": "Epiphany", "address": "96 South 9th Street", "est": 1905, "closed": null, "origin": null, "lat": 40.7108, "lng": -73.9629 },
    { "id": 6, "name": "Fourteen Holy Martyrs", "address": "Central Ave. and Covert St.", "est": 1887, "closed": 1976, "origin": null, "lat": 40.6944, "lng": -73.9183, "note": "See St. Martin of Tours" },
    { "id": 7, "name": "Good Shepherd", "address": "1950 Batchelder Street", "est": 1927, "closed": null, "origin": null, "lat": 40.5978, "lng": -73.9341 },
    { "id": 8, "name": "Guardian Angel", "address": "2978 Ocean Parkway", "est": 1885, "closed": null, "origin": null, "lat": 40.5831, "lng": -73.9681 },
    { "id": 9, "name": "Holy Cross", "address": "2530 Church Avenue", "est": 1845, "closed": null, "origin": null, "lat": 40.6502, "lng": -73.9499 },
    { "id": 10, "name": "Holy Family", "address": "205 14th Street", "est": 1880, "closed": null, "origin": null, "lat": 40.6648, "lng": -73.9953 },
    { "id": 11, "name": "Holy Family (Flatlands)", "address": "9719 Flatlands Avenue", "est": 1880, "closed": null, "origin": null, "lat": 40.6246, "lng": -73.8969 },
    { "id": 12, "name": "Holy Family (Slovak)", "address": "21 Nassau Avenue", "est": 1905, "closed": null, "origin": "Slovak", "lat": 40.7235, "lng": -73.9518 },
    { "id": 14, "name": "Holy Innocents", "address": "279 East 17th Street", "est": 1909, "closed": null, "origin": null, "lat": 40.6448, "lng": -73.9599 },
    { "id": 15, "name": "Holy Name", "address": "245 Prospect Park West", "est": 1878, "closed": null, "origin": null, "lat": 40.6582, "lng": -73.9788 },
    { "id": 16, "name": "Holy Rosary", "address": "141 Chauncey Street", "est": 1889, "closed": null, "origin": null, "lat": 40.6831, "lng": -73.9133 },
    { "id": 17, "name": "Holy Spirit", "address": "1712 45th Street", "est": 1919, "closed": null, "origin": null, "lat": 40.6354, "lng": -73.9889 },
    { "id": 18, "name": "Immaculate Conception", "address": "72 Maujer Street", "est": 1853, "closed": null, "origin": null, "lat": 40.7082, "lng": -73.9438 },
    { "id": 19, "name": "Immaculate Heart of Mary", "address": "2805 Fort Hamilton Parkway", "est": 1893, "closed": null, "origin": null, "lat": 40.6383, "lng": -73.9854 },
    { "id": 20, "name": "Mary Queen of Heaven", "address": "1395 East 56th Street", "est": 1927, "closed": null, "origin": null, "lat": 40.6155, "lng": -73.9094 },
    { "id": 21, "name": "Most Holy Trinity", "address": "138 Montrose Avenue", "est": 1841, "closed": null, "origin": "German", "lat": 40.7083, "lng": -73.9436 },
    { "id": 22, "name": "Nativity of Our Blessed Lord", "address": "Classon and Madison Avenues", "est": 1871, "closed": 1973, "origin": null, "lat": 40.6843, "lng": -73.9607, "note": "Became St. Peter Claver" },
    { "id": 23, "name": "Our Lady Help of Christians", "address": "1315 East 28th Street", "est": 1927, "closed": null, "origin": null, "lat": 40.6266, "lng": -73.9489 },
    { "id": 24, "name": "Our Lady of Angels", "address": "7320 4th Avenue", "est": 1891, "closed": null, "origin": null, "lat": 40.6315, "lng": -74.0288 },
    { "id": 25, "name": "Our Lady of Charity", "address": "1669 Dean Street", "est": 1903, "closed": null, "origin": null, "lat": 40.6784, "lng": -73.9334 },
    { "id": 26, "name": "Our Lady of Consolation", "address": "184 Metropolitan Avenue", "est": 1909, "closed": null, "origin": "Polish", "lat": 40.7145, "lng": -73.9518 },
    { "id": 27, "name": "Our Lady of Czestochowa-St. Casimir", "address": "183 25th Street", "est": 1896, "closed": null, "origin": "Polish", "lat": 40.6585, "lng": -74.0034 },
    { "id": 28, "name": "Our Lady of Good Counsel", "address": "915 Putnam Avenue", "est": 1886, "closed": null, "origin": null, "lat": 40.6843, "lng": -73.9287 },
    { "id": 29, "name": "Our Lady of Grace", "address": "430 Avenue W", "est": 1935, "closed": null, "origin": null, "lat": 40.5972, "lng": -73.9654 },
    { "id": 30, "name": "Our Lady of Guadalupe", "address": "7201 15th Avenue", "est": 1906, "closed": null, "origin": null, "lat": 40.6246, "lng": -74.0001 },
    { "id": 31, "name": "Our Lady of Loreto", "address": "124 Sackman Street", "est": 1894, "closed": null, "origin": null, "lat": 40.6720, "lng": -73.9012 },
    { "id": 32, "name": "Our Lady of Lourdes", "address": "11 DeSales Place", "est": 1872, "closed": null, "origin": null, "lat": 40.6798, "lng": -73.8821 },
    { "id": 33, "name": "Our Lady of Mercy (old)", "address": "DeKalb and Debevoise Avenues", "est": 1857, "closed": 1930, "origin": null, "lat": 40.6901, "lng": -73.9841 },
    { "id": 34, "name": "Our Lady of Mercy", "address": "680 Mother Gaston Blvd.", "est": 1961, "closed": null, "origin": null, "lat": 40.6692, "lng": -73.9021 },
    { "id": 35, "name": "Our Lady of Miracles", "address": "757 East 86th Street", "est": 1936, "closed": null, "origin": null, "lat": 40.6133, "lng": -73.9189 },
    { "id": 36, "name": "Our Lady of Mount Carmel", "address": "275 North 8th Street", "est": 1887, "closed": null, "origin": "Italian", "lat": 40.7176, "lng": -73.9591 },
    { "id": 37, "name": "Our Lady of Peace", "address": "522 Carroll Street", "est": 1901, "closed": null, "origin": null, "lat": 40.6776, "lng": -73.9851 },
    { "id": 38, "name": "Our Lady of Perpetual Help", "address": "526 59th Street", "est": 1894, "closed": null, "origin": null, "lat": 40.6389, "lng": -74.0211 },
    { "id": 39, "name": "Our Lady of Presentation", "address": "8007 4th Avenue", "est": 1922, "closed": null, "origin": null, "lat": 40.6211, "lng": -74.0285 },
    { "id": 40, "name": "Our Lady of Refuge", "address": "2020 Foster Avenue", "est": 1909, "closed": null, "origin": null, "lat": 40.6372, "lng": -73.9487 },
    { "id": 41, "name": "Our Lady of Solace", "address": "2866 West 17th Street", "est": 1910, "closed": null, "origin": null, "lat": 40.5774, "lng": -73.9848 },
    { "id": 42, "name": "Our Lady of Sorrows", "address": "103 Pitt Street", "est": 1867, "closed": null, "origin": null, "lat": 40.6898, "lng": -73.8854 },
    { "id": 43, "name": "Our Lady of Trust", "address": "1614 Cropsey Avenue", "est": 1951, "closed": null, "origin": null, "lat": 40.5945, "lng": -73.9944 },
    { "id": 44, "name": "Our Lady of Victory", "address": "583 Throop Avenue", "est": 1895, "closed": null, "origin": null, "lat": 40.6882, "lng": -73.9420 },
    { "id": 45, "name": "Our Lady Queen of Martyrs", "address": "71 Adelphi Street", "est": 1962, "closed": null, "origin": null, "lat": 40.6914, "lng": -73.9732 },
    { "id": 46, "name": "Precious Blood", "address": "3rd Avenue and 6th Street", "est": 1872, "closed": 1939, "origin": null, "lat": 40.6728, "lng": -74.0003, "note": "Closed 1939" },
    { "id": 48, "name": "Queen of All Saints", "address": "300 Vanderbilt Avenue", "est": 1913, "closed": null, "origin": null, "lat": 40.6869, "lng": -73.9693 },
    { "id": 49, "name": "Resurrection", "address": "2201 Gerritsen Avenue", "est": 1925, "closed": null, "origin": null, "lat": 40.5887, "lng": -73.9223 },
    { "id": 50, "name": "Sacred Heart", "address": "325 Degraw Street", "est": 1863, "closed": null, "origin": null, "lat": 40.6820, "lng": -73.9880 },
    { "id": 51, "name": "Sacred Heart of Jesus", "address": "125 Parkville Avenue", "est": 1879, "closed": null, "origin": "Italian", "lat": 40.6394, "lng": -73.9790 },
    { "id": 52, "name": "Sacred Hearts of Jesus and Mary & St. Stephen", "address": "125 Summit Street", "est": 1869, "closed": null, "origin": null, "lat": 40.6835, "lng": -74.0032 },
    { "id": 53, "name": "Sacred Hearts-St. Stephen", "address": "108 Carroll Street", "est": 1870, "closed": null, "origin": null, "lat": 40.6808, "lng": -74.0018 },
    { "id": 54, "name": "St. Agatha", "address": "736 48th Street", "est": 1917, "closed": null, "origin": null, "lat": 40.6377, "lng": -74.0116 },
    { "id": 55, "name": "St. Agnes", "address": "417 Sackett Street", "est": 1858, "closed": null, "origin": null, "lat": 40.6805, "lng": -73.9934 },
    { "id": 56, "name": "St. Ambrose", "address": "267 Throop Avenue", "est": 1903, "closed": null, "origin": null, "lat": 40.6943, "lng": -73.9423 },
    { "id": 57, "name": "St. Andrew the Apostle", "address": "353 Hicks Street", "est": 1852, "closed": null, "origin": null, "lat": 40.6921, "lng": -73.9985 },
    { "id": 58, "name": "St. Anselm", "address": "365 83rd Street", "est": 1904, "closed": null, "origin": null, "lat": 40.6214, "lng": -74.0263 },
    { "id": 59, "name": "St. Anthony of Padua", "address": "832 Manhattan Avenue", "est": 1874, "closed": null, "origin": null, "lat": 40.7284, "lng": -73.9541 },
    { "id": 60, "name": "St. Anthony of Padua-St. Alphonsus", "address": "862 4th Avenue", "est": 1874, "closed": null, "origin": null, "lat": 40.6558, "lng": -73.9958 },
    { "id": 61, "name": "St. Athanasius", "address": "2154 61st Street", "est": 1925, "closed": null, "origin": null, "lat": 40.6175, "lng": -73.9180 },
    { "id": 62, "name": "St. Augustine", "address": "116 6th Avenue", "est": 1870, "closed": null, "origin": null, "lat": 40.6782, "lng": -73.9863 },
    { "id": 63, "name": "St. Barbara", "address": "138 Bleecker Street", "est": 1893, "closed": null, "origin": "Italian", "lat": 40.6996, "lng": -73.9132 },
    { "id": 64, "name": "St. Benedict Joseph", "address": "364 New Jersey Avenue", "est": 1897, "closed": null, "origin": null, "lat": 40.6768, "lng": -73.8807 },
    { "id": 65, "name": "St. Bernadette", "address": "8201 13th Avenue", "est": 1937, "closed": null, "origin": null, "lat": 40.6176, "lng": -73.9996 },
    { "id": 66, "name": "St. Bernard", "address": "2055 East 69th Street", "est": 1910, "closed": null, "origin": null, "lat": 40.6153, "lng": -73.9013 },
    { "id": 67, "name": "St. Boniface", "address": "109 Willoughby Street", "est": 1853, "closed": null, "origin": "German", "lat": 40.6927, "lng": -73.9839 },
    { "id": 68, "name": "St. Brendan", "address": "525 East 45th Street", "est": 1913, "closed": null, "origin": null, "lat": 40.6321, "lng": -73.9318 },
    { "id": 69, "name": "St. Brigid", "address": "409 Linden Street", "est": 1854, "closed": null, "origin": null, "lat": 40.6943, "lng": -73.9076 },
    { "id": 70, "name": "St. Catherine of Alexandria", "address": "1097 Eastern Parkway", "est": 1886, "closed": null, "origin": null, "lat": 40.6709, "lng": -73.9427 },
    { "id": 71, "name": "St. Catherine of Genoa", "address": "4502 Avenue D", "est": 1918, "closed": null, "origin": null, "lat": 40.6261, "lng": -73.9301 },
    { "id": 72, "name": "St. Cecilia", "address": "84 Herbert Street", "est": 1871, "closed": null, "origin": null, "lat": 40.7229, "lng": -73.9442 },
    { "id": 73, "name": "St. Charles Borromeo", "address": "21 Sidney Place", "est": 1868, "closed": null, "origin": null, "lat": 40.6896, "lng": -73.9924 },
    { "id": 74, "name": "St. Clare", "address": "718 E. 13th Street", "est": 1927, "closed": null, "origin": null, "lat": 40.6252, "lng": -73.9511 },
    { "id": 75, "name": "St. Columba", "address": "2245 Kimball Street", "est": 1913, "closed": null, "origin": null, "lat": 40.5979, "lng": -73.9225 },
    { "id": 76, "name": "St. Cyril of Alexandria", "address": "62 Powers Street", "est": 1897, "closed": null, "origin": "Polish", "lat": 40.7073, "lng": -73.9438 },
    { "id": 77, "name": "St. Dominic", "address": "555 Mother Gaston Boulevard", "est": 1911, "closed": null, "origin": null, "lat": 40.6679, "lng": -73.9023 },
    { "id": 78, "name": "St. Edmund", "address": "1902 Avenue T", "est": 1924, "closed": null, "origin": null, "lat": 40.6035, "lng": -73.9448 },
    { "id": 79, "name": "St. Ephrem", "address": "929 Bay Ridge Parkway", "est": 1912, "closed": null, "origin": null, "lat": 40.6226, "lng": -74.0131 },
    { "id": 80, "name": "St. Finbar", "address": "1839 Bath Avenue", "est": 1917, "closed": null, "origin": null, "lat": 40.6009, "lng": -73.9903 },
    { "id": 81, "name": "St. Frances Cabrini", "address": "4002 Avenue K", "est": 1947, "closed": null, "origin": null, "lat": 40.6265, "lng": -73.9232 },
    { "id": 82, "name": "St. Frances de Chantal", "address": "1273 58th Street", "est": 1935, "closed": null, "origin": null, "lat": 40.6259, "lng": -73.9757 },
    { "id": 83, "name": "St. Francis Assisi", "address": "401 Lincoln Road", "est": 1900, "closed": null, "origin": null, "lat": 40.6542, "lng": -73.9570 },
    { "id": 84, "name": "St. Francis of Paola", "address": "210 Skillman Street", "est": 1904, "closed": null, "origin": "Italian", "lat": 40.7013, "lng": -73.9341 },
    { "id": 85, "name": "St. Francis Xavier", "address": "255 President Street", "est": 1881, "closed": null, "origin": null, "lat": 40.6798, "lng": -73.9812 },
    { "id": 86, "name": "St. Gabriel", "address": "331 Hawthorne Street", "est": 1908, "closed": null, "origin": null, "lat": 40.6551, "lng": -73.9520 },
    { "id": 87, "name": "St. George", "address": "York and Gold Streets", "est": 1909, "closed": 1957, "origin": "Lithuanian", "lat": 40.6962, "lng": -73.9843 },
    { "id": 88, "name": "St. Gregory the Great", "address": "224 Brooklyn Avenue", "est": 1905, "closed": null, "origin": null, "lat": 40.6667, "lng": -73.9307 },
    { "id": 89, "name": "St. Ignatius Loyola", "address": "1101 Carroll Street", "est": 1908, "closed": null, "origin": null, "lat": 40.6680, "lng": -73.9499 },
    { "id": 90, "name": "St. James Cathedral", "address": "250 Cathedral Place", "est": 1822, "closed": null, "origin": null, "lat": 40.6918, "lng": -73.9890 },
    { "id": 91, "name": "St. Jerome", "address": "2900 Newkirk Avenue", "est": 1901, "closed": null, "origin": null, "lat": 40.6376, "lng": -73.9466 },
    { "id": 92, "name": "St. John the Baptist", "address": "75 Lewis Avenue", "est": 1868, "closed": null, "origin": null, "lat": 40.6935, "lng": -73.9370 },
    { "id": 93, "name": "St. John Cantius", "address": "479 New Jersey Avenue", "est": 1902, "closed": null, "origin": null, "lat": 40.6759, "lng": -73.8799 },
    { "id": 94, "name": "St. John the Evangelist", "address": "250 21st Street", "est": 1850, "closed": null, "origin": null, "lat": 40.6626, "lng": -73.9977 },
    { "id": 95, "name": "St. Joseph", "address": "856 Pacific Street", "est": 1850, "closed": null, "origin": null, "lat": 40.6792, "lng": -73.9649 },
    { "id": 96, "name": "St. Joseph Patron of the Universal Church", "address": "185 Suydam Street", "est": 1921, "closed": null, "origin": null, "lat": 40.7018, "lng": -73.9196 },
    { "id": 97, "name": "St. Jude", "address": "1677 Canarsie Road", "est": 1961, "closed": null, "origin": null, "lat": 40.6339, "lng": -73.9006 },
    { "id": 98, "name": "St. Laurence", "address": "1020 Van Siclen Avenue", "est": 1964, "closed": null, "origin": null, "lat": 40.6634, "lng": -73.8818 },
    { "id": 99, "name": "St. Leonard of Port Maurice", "address": "199 Jefferson Street", "est": 1872, "closed": null, "origin": "German", "lat": 40.7027, "lng": -73.9258 },
    { "id": 100, "name": "St. Louis (old)", "address": "Ewen and Seigel Streets", "est": 1870, "closed": 1939, "origin": "French", "lat": 40.7089, "lng": -73.9318 },
    { "id": 101, "name": "St. Lucy-St. Patrick", "address": "285 Willoughby Avenue", "est": 1843, "closed": null, "origin": null, "lat": 40.6900, "lng": -73.9620 },
    { "id": 102, "name": "St. Malachy", "address": "207 Hendrix Street", "est": 1854, "closed": null, "origin": null, "lat": 40.6729, "lng": -73.8855 },
    { "id": 103, "name": "St. Margaret Mary", "address": "215 Exeter Place", "est": 1920, "closed": null, "origin": null, "lat": 40.5852, "lng": -73.9513 },
    { "id": 104, "name": "St. Mark", "address": "2609 East 19th Street", "est": 1861, "closed": null, "origin": null, "lat": 40.5878, "lng": -73.9497 },
    { "id": 105, "name": "St. Martin of Tours-Fourteen Holy Martyrs", "address": "1288 Hancock Street", "est": 1906, "closed": null, "origin": null, "lat": 40.6828, "lng": -73.9151 },
    { "id": 106, "name": "St. Mary, Star of the Sea", "address": "467 Court Street", "est": 1855, "closed": null, "origin": null, "lat": 40.6758, "lng": -73.9993 },
    { "id": 107, "name": "St. Mary Mother of Jesus", "address": "2326 84th Street", "est": 1889, "closed": null, "origin": null, "lat": 40.6013, "lng": -73.9918 },
    { "id": 108, "name": "St. Mary of the Angels (old)", "address": "S. 4th and Roebling Streets", "est": 1896, "closed": 1981, "origin": null, "lat": 40.7103, "lng": -73.9582 },
    { "id": 109, "name": "St. Matthew", "address": "1123 Eastern Parkway", "est": 1886, "closed": null, "origin": null, "lat": 40.6704, "lng": -73.9407 },
    { "id": 110, "name": "St. Michael", "address": "352 42nd Street", "est": 1870, "closed": null, "origin": null, "lat": 40.6552, "lng": -74.0008 },
    { "id": 111, "name": "St. Michael (East NY)", "address": "225 Jerome Street", "est": 1860, "closed": null, "origin": "German", "lat": 40.6742, "lng": -73.8789 },
    { "id": 112, "name": "St. Michael Archangel & St. Edward", "address": "108 St. Edward's Place", "est": 1891, "closed": null, "origin": null, "lat": 40.6938, "lng": -73.9774 },
    { "id": 113, "name": "St. Nicholas", "address": "26 Olive Street", "est": 1865, "closed": null, "origin": "German", "lat": 40.7141, "lng": -73.9534 },
    { "id": 114, "name": "St. Patrick", "address": "9511 4th Avenue", "est": 1849, "closed": null, "origin": null, "lat": 40.6152, "lng": -74.0295 },
    { "id": 115, "name": "St. Peter Claver", "address": "29 Claver Place", "est": 1921, "closed": null, "origin": null, "lat": 40.6867, "lng": -73.9621 },
    { "id": 116, "name": "St. Peter's-St. Paul's-Our Lady of Pilar", "address": "234 Congress Street", "est": 1859, "closed": null, "origin": null, "lat": 40.6873, "lng": -73.9991 },
    { "id": 117, "name": "Sts. Peter and Paul", "address": "71 South 3rd Street", "est": 1844, "closed": null, "origin": null, "lat": 40.7114, "lng": -73.9638 },
    { "id": 118, "name": "St. Rita", "address": "275 Shepherd Avenue", "est": 1913, "closed": null, "origin": null, "lat": 40.6723, "lng": -73.8776 },
    { "id": 119, "name": "St. Rocco", "address": "216 27th Street", "est": 1902, "closed": null, "origin": null, "lat": 40.6564, "lng": -74.0014 },
    { "id": 120, "name": "St. Rosalia-Regina Pacis", "address": "1230 65th Street", "est": 1902, "closed": null, "origin": null, "lat": 40.6219, "lng": -73.9869 },
    { "id": 121, "name": "St. Rose of Lima", "address": "269 Parkville Avenue", "est": 1870, "closed": null, "origin": null, "lat": 40.6402, "lng": -73.9745 },
    { "id": 122, "name": "St. Saviour", "address": "611 8th Avenue", "est": 1905, "closed": null, "origin": null, "lat": 40.6668, "lng": -73.9860 },
    { "id": 123, "name": "Sts. Simon and Jude", "address": "185 Van Sicklen Street", "est": 1897, "closed": null, "origin": null, "lat": 40.5979, "lng": -73.9614 },
    { "id": 124, "name": "St. Stanislaus Kostka", "address": "607 Humboldt Street", "est": 1896, "closed": null, "origin": "Polish", "lat": 40.7223, "lng": -73.9436 },
    { "id": 125, "name": "St. Stanislaus Martyr (old)", "address": "6th Avenue near 14th Street", "est": 1891, "closed": 1979, "origin": null, "lat": 40.6683, "lng": -73.9858 },
    { "id": 126, "name": "St. Sylvester", "address": "416 Grant Avenue", "est": 1923, "closed": null, "origin": null, "lat": 40.6751, "lng": -73.8631 },
    { "id": 127, "name": "St. Teresa of Avila", "address": "563 Sterling Place", "est": 1874, "closed": null, "origin": null, "lat": 40.6773, "lng": -73.9561 },
    { "id": 128, "name": "St. Therese of Lisieux", "address": "1281 Troy Avenue", "est": 1926, "closed": null, "origin": null, "lat": 40.6594, "lng": -73.9273 },
    { "id": 129, "name": "St. Thomas Aquinas", "address": "249 9th Street", "est": 1884, "closed": null, "origin": null, "lat": 40.6686, "lng": -73.9879 },
    { "id": 130, "name": "St. Thomas Aquinas (Flatlands)", "address": "1550 Hendrickson Street", "est": 1885, "closed": null, "origin": null, "lat": 40.6198, "lng": -73.9052 },
    { "id": 131, "name": "St. Vincent De Paul", "address": "167 North 6th Street", "est": 1860, "closed": null, "origin": null, "lat": 40.7179, "lng": -73.9601 },
    { "id": 132, "name": "St. Vincent Ferrer", "address": "1603 Brooklyn Avenue", "est": 1923, "closed": null, "origin": null, "lat": 40.6531, "lng": -73.9321 },
    { "id": 133, "name": "Transfiguration", "address": "263 Marcy Avenue", "est": 1874, "closed": null, "origin": null, "lat": 40.6984, "lng": -73.9519 },
    { "id": 134, "name": "Visitation of the B.V.M.", "address": "98 Richards Street", "est": 1854, "closed": null, "origin": null, "lat": 40.6797, "lng": -74.0077 }
]

